[
    {
        "id":"qcnoyytlFIuqlcjDXkXJiw",
        "name":"Starbucks",
        "review_count":80,
        "rating":2.5,
        "price":"$$",
        "price_point":2,
        "display_phone":"(718) 855-0856",
        "address1":"67 Main St",
        "address2":"",
        "address3":"",
        "city":"Brooklyn",
        "state":"NY",
        "zip":"11201",
        "country":"US",
        "latitude":40.70275444,
        "longitude":-73.99088374
    },
    {
        "id":"60agfQbky4cX8BEApyltIA",
        "name":"Starbucks",
        "review_count":36,
        "rating":2.0,
        "price":"$",
        "price_point":1,
        "display_phone":"(646) 699-9983",
        "address1":"375 Pearl St",
        "address2":"",
        "address3":"",
        "city":"New York",
        "state":"NY",
        "zip":"10038",
        "country":"US",
        "latitude":40.71102,
        "longitude":-74.00091
    },
    {
        "id":"C0EKm9V9QI2R47QkRWA5aQ",
        "name":"Starbucks",
        "review_count":44,
        "rating":3.0,
        "price":"$",
        "price_point":1,
        "display_phone":"(929) 955-1841",
        "address1":"99 Wall St",
        "address2":"",
        "address3":"",
        "city":"New York",
        "state":"NY",
        "zip":"10005",
        "country":"US",
        "latitude":40.7049014,
        "longitude":-74.0072444
    },
    {
        "id":"OuNYQaqEJjkBHRdnC-4HOw",
        "name":"Starbucks",
        "review_count":40,
        "rating":2.5,
        "price":"$$",
        "price_point":2,
        "display_phone":"(212) 509-9709",
        "address1":"100 William St",
        "address2":"",
        "address3":"",
        "city":"New York",
        "state":"NY",
        "zip":"10038",
        "country":"US",
        "latitude":40.708413,
        "longitude":-74.007387
    },
    {
        "id":"mEMPhPK6dSgy5eXS-kYHLg",
        "name":"Starbucks",
        "review_count":68,
        "rating":3.0,
        "price":"$$",
        "price_point":2,
        "display_phone":"(718) 243-0455",
        "address1":"134 Montague St",
        "address2":"",
        "address3":"",
        "city":"Brooklyn",
        "state":"NY",
        "zip":"11201",
        "country":"US",
        "latitude":40.694582,
        "longitude":-73.993978
    },
    {
        "id":"t03ZbaLQP3MrMuUGb6MQdw",
        "name":"Starbucks",
        "review_count":53,
        "rating":2.0,
        "price":"$$",
        "price_point":2,
        "display_phone":"(212) 482-6530",
        "address1":"110 Pearl St",
        "address2":"",
        "address3":"",
        "city":"New York",
        "state":"NY",
        "zip":"10005",
        "country":"US",
        "latitude":40.704653,
        "longitude":-74.009001
    },
    {
        "id":"pTv4RDll3N_CGG3BwtEctg",
        "name":"Starbucks",
        "review_count":59,
        "rating":3.0,
        "price":"$",
        "price_point":1,
        "display_phone":"(212) 608-8073",
        "address1":"38 Park Row",
        "address2":"",
        "address3":"",
        "city":"New York",
        "state":"NY",
        "zip":"10038",
        "country":"US",
        "latitude":40.71168566,
        "longitude":-74.00666918
    },
    {
        "id":"j6nTfbYavGVsJKxz6bte6w",
        "name":"Starbucks",
        "review_count":61,
        "rating":3.5,
        "price":"$",
        "price_point":1,
        "display_phone":"(212) 962-0439",
        "address1":"130 Fulton St",
        "address2":"",
        "address3":"",
        "city":"New York",
        "state":"NY",
        "zip":"10038",
        "country":"US",
        "latitude":40.71022348,
        "longitude":-74.00797242
    },
    {
        "id":"XzAZVxmGPcysK8hYdcAJKA",
        "name":"Starbucks",
        "review_count":53,
        "rating":2.5,
        "price":"$$",
        "price_point":2,
        "display_phone":"(212) 964-8846",
        "address1":"111 Worth St",
        "address2":"",
        "address3":"",
        "city":"New York",
        "state":"NY",
        "zip":"10013",
        "country":"US",
        "latitude":40.71588714,
        "longitude":-74.00314073
    },
    {
        "id":"4jWEL2gMhfwfzej0rfgJiQ",
        "name":"Starbucks",
        "review_count":55,
        "rating":2.0,
        "price":"$",
        "price_point":1,
        "display_phone":"(212) 619-1529",
        "address1":"233 Broadway",
        "address2":"",
        "address3":"",
        "city":"New York",
        "state":"NY",
        "zip":"10279",
        "country":"US",
        "latitude":40.7122282996,
        "longitude":-74.0082058082
    },
    {
        "id":"E6h-sMLmF86cuituw5zYxw",
        "name":"Starbucks",
        "review_count":148,
        "rating":2.5,
        "price":"$$",
        "price_point":2,
        "display_phone":"(718) 522-2396",
        "address1":"6 MetroTech Ctr",
        "address2":"Poly Tech Institute",
        "address3":"",
        "city":"Brooklyn",
        "state":"NY",
        "zip":"11201",
        "country":"US",
        "latitude":40.694047,
        "longitude":-73.9867893
    },
    {
        "id":"Ftrk-Rx1i3okzxnQNuLcnw",
        "name":"Starbucks",
        "review_count":95,
        "rating":2.5,
        "price":"$$",
        "price_point":2,
        "display_phone":"(212) 742-2490",
        "address1":"55 Broad St",
        "address2":"",
        "address3":"",
        "city":"New York",
        "state":"NY",
        "zip":"10004",
        "country":"US",
        "latitude":40.70520877,
        "longitude":-74.01128172
    },
    {
        "id":"bbVBza8jlZoVi1meNZbbxw",
        "name":"Starbucks",
        "review_count":2,
        "rating":5.0,
        "price":"",
        "price_point":0,
        "display_phone":"(347) 305-1487",
        "address1":"3 Flushing Ave",
        "address2":"",
        "address3":"",
        "city":"Brooklyn",
        "state":"NY",
        "zip":"11205",
        "country":"US",
        "latitude":40.6984518595,
        "longitude":-73.9797161
    },
    {
        "id":"V05D4jAQb3rT3WqEBGq-og",
        "name":"Starbucks",
        "review_count":73,
        "rating":2.0,
        "price":"$$",
        "price_point":2,
        "display_phone":"(212) 406-5315",
        "address1":"291 Broadway",
        "address2":"",
        "address3":"",
        "city":"New York",
        "state":"NY",
        "zip":"10007",
        "country":"US",
        "latitude":40.71504153,
        "longitude":-74.00602938
    },
    {
        "id":"FrigBgxfxMxwPJNq-hAr0Q",
        "name":"Starbucks",
        "review_count":51,
        "rating":3.0,
        "price":"$$",
        "price_point":2,
        "display_phone":"(212) 732-9268",
        "address1":"115 Broadway",
        "address2":"",
        "address3":"",
        "city":"New York",
        "state":"NY",
        "zip":"10006",
        "country":"US",
        "latitude":40.708758,
        "longitude":-74.011055
    },
    {
        "id":"LQtVFXqjHW9ffkHNA7TqdQ",
        "name":"Starbucks",
        "review_count":111,
        "rating":3.0,
        "price":"$$",
        "price_point":2,
        "display_phone":"(718) 855-0369",
        "address1":"50 Court St",
        "address2":"",
        "address3":"",
        "city":"Brooklyn",
        "state":"NY",
        "zip":"11201",
        "country":"US",
        "latitude":40.69248079,
        "longitude":-73.99126236
    },
    {
        "id":"CszSAlKolUeJ0-IaRDL0YQ",
        "name":"Starbucks",
        "review_count":65,
        "rating":2.5,
        "price":"$$",
        "price_point":2,
        "display_phone":"(212) 385-1104",
        "address1":"195 Broadway",
        "address2":"",
        "address3":"",
        "city":"New York",
        "state":"NY",
        "zip":"10007",
        "country":"US",
        "latitude":40.71076714,
        "longitude":-74.01044104
    },
    {
        "id":"IY8HhDLbJGfHLL8GhaUicw",
        "name":"Starbucks",
        "review_count":52,
        "rating":2.5,
        "price":"$$",
        "price_point":2,
        "display_phone":"(347) 997-2633",
        "address1":"309 Gold St",
        "address2":"",
        "address3":"",
        "city":"Brooklyn",
        "state":"NY",
        "zip":"11201",
        "country":"US",
        "latitude":40.694975,
        "longitude":-73.982911
    },
    {
        "id":"RIklVZ2AEvC62MtCPRmFRQ",
        "name":"Starbucks",
        "review_count":14,
        "rating":2.5,
        "price":"$",
        "price_point":1,
        "display_phone":"(212) 785-8409",
        "address1":"1 New York Plz",
        "address2":"",
        "address3":"",
        "city":"New York",
        "state":"NY",
        "zip":"10004",
        "country":"US",
        "latitude":40.7020572,
        "longitude":-74.01198708
    },
    {
        "id":"8uTTEIDkYuEXywiWcP5w-w",
        "name":"Starbucks",
        "review_count":70,
        "rating":2.5,
        "price":"$$",
        "price_point":2,
        "display_phone":"(212) 513-1451",
        "address1":"120 Church St",
        "address2":"",
        "address3":"",
        "city":"New York",
        "state":"NY",
        "zip":"10007",
        "country":"US",
        "latitude":40.713782,
        "longitude":-74.009077
    },
    {
        "id":"HSdM_oo-UTkHXRXQM81s7g",
        "name":"Starbucks",
        "review_count":17,
        "rating":4.0,
        "price":"",
        "price_point":0,
        "display_phone":"(212) 248-7478",
        "address1":"55 Broadway",
        "address2":"",
        "address3":"",
        "city":"New York",
        "state":"NY",
        "zip":"10006",
        "country":"US",
        "latitude":40.70696558,
        "longitude":-74.012968
    },
    {
        "id":"rPXlTqHLYKcXyADOeqzwbg",
        "name":"Starbucks",
        "review_count":73,
        "rating":2.5,
        "price":"$$",
        "price_point":2,
        "display_phone":"(212) 344-4290",
        "address1":"2 Broadway",
        "address2":"",
        "address3":"",
        "city":"New York",
        "state":"NY",
        "zip":"10004",
        "country":"US",
        "latitude":40.704345,
        "longitude":-74.01299953
    },
    {
        "id":"JXKpCS9Ru3nt7U0_kFqZgA",
        "name":"Starbucks",
        "review_count":69,
        "rating":3.0,
        "price":"$$",
        "price_point":2,
        "display_phone":"(718) 488-1719",
        "address1":"348 Fulton St",
        "address2":"Fulton Mall",
        "address3":"",
        "city":"Brooklyn",
        "state":"NY",
        "zip":"11201",
        "country":"US",
        "latitude":40.691795,
        "longitude":-73.988548
    },
    {
        "id":"hh2T5aLJsSjpHvPRcQxIJw",
        "name":"Starbucks",
        "review_count":36,
        "rating":3.0,
        "price":"$$",
        "price_point":2,
        "display_phone":"(646) 856-5994",
        "address1":"33 Vesey St",
        "address2":"",
        "address3":"",
        "city":"New York",
        "state":"NY",
        "zip":"10007",
        "country":"US",
        "latitude":40.7122175331,
        "longitude":-74.011037318
    },
    {
        "id":"chLhbhg91BAxxxYUdcHmFA",
        "name":"Starbucks",
        "review_count":160,
        "rating":2.5,
        "price":"$$",
        "price_point":2,
        "display_phone":"(917) 534-1397",
        "address1":"80 Delancey St",
        "address2":"",
        "address3":"",
        "city":"New York",
        "state":"NY",
        "zip":"10002",
        "country":"US",
        "latitude":40.719333,
        "longitude":-73.989977
    },
    {
        "id":"iWoOAvIYqZ8nqx1BYcuZYw",
        "name":"Starbucks",
        "review_count":27,
        "rating":3.0,
        "price":"$",
        "price_point":1,
        "display_phone":"(646) 838-4269",
        "address1":"157 Lafayette St",
        "address2":"",
        "address3":"157 Lafayette",
        "city":"New York",
        "state":"NY",
        "zip":"10013",
        "country":"US",
        "latitude":40.719757,
        "longitude":-73.99913
    },
    {
        "id":"01cAFjVfryumdxZCs-QG-A",
        "name":"Starbucks",
        "review_count":52,
        "rating":3.5,
        "price":"$",
        "price_point":1,
        "display_phone":"(646) 613-0148",
        "address1":"405 Broadway",
        "address2":"",
        "address3":"",
        "city":"New York",
        "state":"NY",
        "zip":"10013",
        "country":"US",
        "latitude":40.71907606,
        "longitude":-74.00262424
    },
    {
        "id":"rveP6oXixE2a2sKwMqS-ww",
        "name":"Starbucks",
        "review_count":51,
        "rating":2.0,
        "price":"$",
        "price_point":1,
        "display_phone":"(212) 791-6368",
        "address1":"125 Chambers St",
        "address2":"",
        "address3":"",
        "city":"New York",
        "state":"NY",
        "zip":"10007",
        "country":"US",
        "latitude":40.715532,
        "longitude":-74.009003
    },
    {
        "id":"tmCoQxrDuIMHAcJ3_EJakA",
        "name":"Starbucks",
        "review_count":19,
        "rating":3.0,
        "price":"$$",
        "price_point":2,
        "display_phone":"(646) 860-8615",
        "address1":"444 Broadway",
        "address2":"",
        "address3":"",
        "city":"New York",
        "state":"NY",
        "zip":"10013",
        "country":"US",
        "latitude":40.72023566,
        "longitude":-74.00095858
    },
    {
        "id":"zKrj6ADYDWPzD-jozbYrww",
        "name":"Starbucks",
        "review_count":14,
        "rating":5.0,
        "price":"",
        "price_point":0,
        "display_phone":"(212) 219-2277",
        "address1":"422 Fulton St",
        "address2":"",
        "address3":"",
        "city":"Brooklyn",
        "state":"NY",
        "zip":"11201",
        "country":"US",
        "latitude":40.69069421,
        "longitude":-73.98604873
    },
    {
        "id":"GWuY5Sw6QAEYjvE2QYHwbQ",
        "name":"Starbucks",
        "review_count":5,
        "rating":3.0,
        "price":"",
        "price_point":0,
        "display_phone":"(718) 875-7200",
        "address1":"180 W Broadway",
        "address2":"",
        "address3":"",
        "city":"New York",
        "state":"NY",
        "zip":"10013",
        "country":"US",
        "latitude":40.718247,
        "longitude":-74.007305
    },
    {
        "id":"wE3_AwZoZ0ZXbngBH1xRrg",
        "name":"Starbucks",
        "review_count":57,
        "rating":3.5,
        "price":"$",
        "price_point":1,
        "display_phone":"(212) 343-7402",
        "address1":"32 Avenue Of The Americas",
        "address2":"",
        "address3":"",
        "city":"New York",
        "state":"NY",
        "zip":"10013",
        "country":"US",
        "latitude":40.7200627,
        "longitude":-74.0047478
    },
    {
        "id":"XhWXyvt0_n5uRxalVsulRA",
        "name":"Starbucks",
        "review_count":38,
        "rating":2.5,
        "price":"$",
        "price_point":1,
        "display_phone":"(212) 966-0984",
        "address1":"445 Gold St",
        "address2":"",
        "address3":"Target",
        "city":"Brooklyn",
        "state":"NY",
        "zip":"11201",
        "country":"US",
        "latitude":40.69085,
        "longitude":-73.98329
    },
    {
        "id":"WeWZgrCyh14f-X76wZRMMg",
        "name":"Starbucks",
        "review_count":6,
        "rating":2.0,
        "price":"",
        "price_point":0,
        "display_phone":"(929) 397-2864",
        "address1":"200 Liberty St",
        "address2":"",
        "address3":"Brookfield Place 1",
        "city":"New York",
        "state":"NY",
        "zip":"10006",
        "country":"US",
        "latitude":40.71064061,
        "longitude":-74.01566917
    },
    {
        "id":"gfDj7Aa8U9K5UkJ9H65N3w",
        "name":"Starbucks",
        "review_count":47,
        "rating":3.0,
        "price":"$",
        "price_point":1,
        "display_phone":"(929) 755-4010",
        "address1":"72 Spring St",
        "address2":"",
        "address3":"",
        "city":"New York",
        "state":"NY",
        "zip":"10012",
        "country":"US",
        "latitude":40.7224629,
        "longitude":-73.9978143
    },
    {
        "id":"AvpB-RQgEW9N4Eip3l3cww",
        "name":"Starbucks",
        "review_count":64,
        "rating":2.0,
        "price":"$$",
        "price_point":2,
        "display_phone":"(212) 219-2961",
        "address1":"45 Hoyt St",
        "address2":"",
        "address3":"",
        "city":"Brooklyn",
        "state":"NY",
        "zip":"11201",
        "country":"US",
        "latitude":40.68919372,
        "longitude":-73.98589112
    },
    {
        "id":"yhGYzWRpVTszItDTvLt-IA",
        "name":"Starbucks",
        "review_count":10,
        "rating":3.5,
        "price":"",
        "price_point":0,
        "display_phone":"(718) 797-1777",
        "address1":"395 Flatbush Avenue Extension",
        "address2":"",
        "address3":"",
        "city":"Brooklyn",
        "state":"NY",
        "zip":"11201",
        "country":"US",
        "latitude":40.68935078,
        "longitude":-73.980887
    },
    {
        "id":"xPK7cw1KaNyZczS9nBkCqA",
        "name":"Starbucks",
        "review_count":23,
        "rating":2.5,
        "price":"$$",
        "price_point":2,
        "display_phone":"(718) 858-8070",
        "address1":"235 Greenwich St",
        "address2":"",
        "address3":"",
        "city":"New York",
        "state":"NY",
        "zip":"10001",
        "country":"US",
        "latitude":40.7205206261,
        "longitude":-74.0104043161
    },
    {
        "id":"a2nfVfbuobr5EX6sDH7jyw",
        "name":"Starbucks",
        "review_count":67,
        "rating":3.5,
        "price":"$$",
        "price_point":2,
        "display_phone":"(718) 422-0178",
        "address1":"388 Greenwich St",
        "address2":"",
        "address3":"",
        "city":"New York",
        "state":"NY",
        "zip":"10013",
        "country":"US",
        "latitude":40.72098559,
        "longitude":-74.01044872
    },
    {
        "id":"ho_CugEAQlW19dYoQvKPDg",
        "name":"Starbucks",
        "review_count":1,
        "rating":1.0,
        "price":"",
        "price_point":0,
        "display_phone":"",
        "address1":"49 1st Ave",
        "address2":"Ste 2",
        "address3":"",
        "city":"New York",
        "state":"NY",
        "zip":"10003",
        "country":"US",
        "latitude":40.7248169,
        "longitude":-73.98763141
    },
    {
        "id":"fUB19ML4mZsMFDMpvz9rIg",
        "name":"Starbucks",
        "review_count":1,
        "rating":1.0,
        "price":"",
        "price_point":0,
        "display_phone":"(212) 816-3198",
        "address1":"665 Broadway",
        "address2":"",
        "address3":"",
        "city":"New York",
        "state":"NY",
        "zip":"10012",
        "country":"US",
        "latitude":40.72725151,
        "longitude":-73.99551355
    },
    {
        "id":"j45W-e_Y4YGJxRxjI1CoCQ",
        "name":"Starbucks",
        "review_count":38,
        "rating":3.0,
        "price":"$",
        "price_point":1,
        "display_phone":"(212) 777-1752",
        "address1":"482 W Broadway",
        "address2":"",
        "address3":"",
        "city":"New York",
        "state":"NY",
        "zip":"10012",
        "country":"US",
        "latitude":40.726835,
        "longitude":-74.000193
    },
    {
        "id":"K6x7wyqA2iOBjWIhMvOBVQ",
        "name":"Starbucks",
        "review_count":77,
        "rating":2.5,
        "price":"$",
        "price_point":1,
        "display_phone":"(917) 534-0799",
        "address1":"150 Varick St",
        "address2":"",
        "address3":"",
        "city":"New York",
        "state":"NY",
        "zip":"10013",
        "country":"US",
        "latitude":40.725774,
        "longitude":-74.005558
    },
    {
        "id":"PpuKf6U0zWnhI_nxLwu_sw",
        "name":"Starbucks",
        "review_count":68,
        "rating":2.5,
        "price":"$$",
        "price_point":2,
        "display_phone":"(212) 254-0139",
        "address1":"125 Saint Marks Pl",
        "address2":"",
        "address3":"",
        "city":"New York",
        "state":"NY",
        "zip":"10009",
        "country":"US",
        "latitude":40.72692264,
        "longitude":-73.98323616
    },
    {
        "id":"lb14G-jyqSm7zCKKFTiIog",
        "name":"Starbucks",
        "review_count":99,
        "rating":2.0,
        "price":"$$",
        "price_point":2,
        "display_phone":"(646) 230-9816",
        "address1":"45 W 4th St",
        "address2":"",
        "address3":"New York University",
        "city":"New York",
        "state":"NY",
        "zip":"10012",
        "country":"US",
        "latitude":40.72958423,
        "longitude":-73.99624073
    },
    {
        "id":"eSO_9YbzxMcDAYlru7x0Sg",
        "name":"Starbucks",
        "review_count":28,
        "rating":2.0,
        "price":"",
        "price_point":0,
        "display_phone":"(917) 648-3955",
        "address1":"139 Flatbush Ave",
        "address2":"Atlantic Terminal",
        "address3":"",
        "city":"Brooklyn",
        "state":"NY",
        "zip":"11217",
        "country":"US",
        "latitude":40.68465968,
        "longitude":-73.97756354
    },
    {
        "id":"65VJnrsaHS6NZejxnnu23A",
        "name":"Starbucks",
        "review_count":107,
        "rating":1.5,
        "price":"$$",
        "price_point":2,
        "display_phone":"(212) 995-3443",
        "address1":"139 Flatbush Ave",
        "address2":"",
        "address3":"Target",
        "city":"Brooklyn",
        "state":"NY",
        "zip":"11217",
        "country":"US",
        "latitude":40.68462,
        "longitude":-73.977587
    },
    {
        "id":"Rz4f6qTReSN_Tz9ml0EBfg",
        "name":"Starbucks",
        "review_count":75,
        "rating":2.5,
        "price":"$$",
        "price_point":2,
        "display_phone":"(718) 789-3418",
        "address1":"13-25 Astor Pl",
        "address2":"",
        "address3":"",
        "city":"New York",
        "state":"NY",
        "zip":"10003",
        "country":"US",
        "latitude":40.730017,
        "longitude":-73.991547
    },
    {
        "id":"KDdm5R0zBN-9pI9v8B-now",
        "name":"Starbucks",
        "review_count":8,
        "rating":2.5,
        "price":"",
        "price_point":0,
        "display_phone":"(718) 290-1109",
        "address1":"625 Atlantic Ave",
        "address2":"",
        "address3":"",
        "city":"Brooklyn",
        "state":"NY",
        "zip":"11217",
        "country":"US",
        "latitude":40.68512164,
        "longitude":-73.97598755
    },
    {
        "id":"sfmi3mO_Kf__n89SznOy6g",
        "name":"Starbucks",
        "review_count":232,
        "rating":3.0,
        "price":"$$",
        "price_point":2,
        "display_phone":"(212) 982-3753",
        "address1":"219 1st Ave",
        "address2":"",
        "address3":"",
        "city":"New York",
        "state":"NY",
        "zip":"10003",
        "country":"US",
        "latitude":40.7308611,
        "longitude":-73.983244
    },
    {
        "id":"BUGIGJufNEJA5wuzyA2gpw",
        "name":"Starbucks",
        "review_count":2,
        "rating":5.0,
        "price":"$$",
        "price_point":2,
        "display_phone":"(718) 986-7946",
        "address1":"378 6th Ave",
        "address2":"",
        "address3":"",
        "city":"New York",
        "state":"NY",
        "zip":"10011",
        "country":"US",
        "latitude":40.733082,
        "longitude":-73.999734
    },
    {
        "id":"pTZp1Lhdptd9b2HnIej6dg",
        "name":"Starbucks",
        "review_count":67,
        "rating":2.5,
        "price":"$$",
        "price_point":2,
        "display_phone":"(212) 254-0358",
        "address1":"145 3rd Ave",
        "address2":"",
        "address3":"",
        "city":"New York",
        "state":"NY",
        "zip":"10003",
        "country":"US",
        "latitude":40.733792,
        "longitude":-73.986584
    },
    {
        "id":"X4w163aTz8T30XQbg0feRQ",
        "name":"Starbucks",
        "review_count":64,
        "rating":3.0,
        "price":"$",
        "price_point":1,
        "display_phone":"(212) 477-2690",
        "address1":"325 Lafayette Ave",
        "address2":"",
        "address3":"",
        "city":"Brooklyn",
        "state":"NY",
        "zip":"11205",
        "country":"US",
        "latitude":40.688845,
        "longitude":-73.96290311
    },
    {
        "id":"hWNIU-r6lzdYAIs_fyaRkw",
        "name":"Starbucks",
        "review_count":224,
        "rating":3.0,
        "price":"$$",
        "price_point":2,
        "display_phone":"(646) 486-2216",
        "address1":"286 1st Ave",
        "address2":"",
        "address3":"",
        "city":"New York",
        "state":"NY",
        "zip":"10009",
        "country":"US",
        "latitude":40.7329823,
        "longitude":-73.9810385
    },
    {
        "id":"FPD5GmvFphTfCnuGZfgVhQ",
        "name":"Starbucks",
        "review_count":45,
        "rating":2.5,
        "price":"$",
        "price_point":1,
        "display_phone":"(212) 677-7248",
        "address1":"225 4th Ave",
        "address2":"",
        "address3":"",
        "city":"Brooklyn",
        "state":"NY",
        "zip":"11215",
        "country":"US",
        "latitude":40.676998,
        "longitude":-73.983038
    },
    {
        "id":"3EDRLmmA7NEyBAQ86uDzfA",
        "name":"Starbucks",
        "review_count":68,
        "rating":3.0,
        "price":"$$",
        "price_point":2,
        "display_phone":"(212) 353-1214",
        "address1":"240 Park Ave S",
        "address2":"",
        "address3":"",
        "city":"New York",
        "state":"NY",
        "zip":"10003",
        "country":"US",
        "latitude":40.73809787,
        "longitude":-73.98832009
    },
    {
        "id":"lNY8FMxryObIJDo-06OVlg",
        "name":"Starbucks",
        "review_count":167,
        "rating":2.5,
        "price":"$$",
        "price_point":2,
        "display_phone":"(212) 982-8426",
        "address1":"405-409 Union Ave",
        "address2":"",
        "address3":"",
        "city":"Brooklyn",
        "state":"NY",
        "zip":"11211",
        "country":"US",
        "latitude":40.71269245,
        "longitude":-73.95165501
    },
    {
        "id":"CuSd-eVYOuEfx33KLlS5dQ",
        "name":"Starbucks",
        "review_count":22,
        "rating":4.5,
        "price":"$$",
        "price_point":2,
        "display_phone":"(347) 909-1507",
        "address1":"400 E 23rd St",
        "address2":"",
        "address3":"",
        "city":"New York",
        "state":"NY",
        "zip":"10010",
        "country":"US",
        "latitude":40.7364959,
        "longitude":-73.978369
    },
    {
        "id":"Sp4340c-mw7VgD8wWasvVw",
        "name":"Starbucks",
        "review_count":93,
        "rating":3.0,
        "price":"$$",
        "price_point":2,
        "display_phone":"(201) 547-8375",
        "address1":"304 Park Ave S",
        "address2":"",
        "address3":"",
        "city":"New York",
        "state":"NY",
        "zip":"10010",
        "country":"US",
        "latitude":40.74015237,
        "longitude":-73.98681292
    },
    {
        "id":"Yjw3X1AElQmHhxwYHmgKzA",
        "name":"Starbucks",
        "review_count":70,
        "rating":2.5,
        "price":"$$",
        "price_point":2,
        "display_phone":"(212) 242-5981",
        "address1":"678 Hudson St",
        "address2":"678 Hudson St",
        "address3":"",
        "city":"New York",
        "state":"NY",
        "zip":"10014",
        "country":"US",
        "latitude":40.740409,
        "longitude":-74.004978
    },
    {
        "id":"bCNUrWXHB96NFcCgODGd9Q",
        "name":"Starbucks",
        "review_count":50,
        "rating":3.0,
        "price":"$$",
        "price_point":2,
        "display_phone":"(212) 375-1415",
        "address1":"50 Lexington Ave",
        "address2":"",
        "address3":"",
        "city":"New York",
        "state":"NY",
        "zip":"10010",
        "country":"US",
        "latitude":40.740633,
        "longitude":-73.984237
    },
    {
        "id":"csbxFFvKpNoXXXarxv7Wsg",
        "name":"Starbucks",
        "review_count":104,
        "rating":2.5,
        "price":"$$",
        "price_point":2,
        "display_phone":"(718) 384-6936",
        "address1":"476 4th Ave",
        "address2":"",
        "address3":"",
        "city":"Brooklyn",
        "state":"NY",
        "zip":"11215",
        "country":"US",
        "latitude":40.66954366,
        "longitude":-73.98980207
    },
    {
        "id":"TF18eL-pz9xNCIR0Oz2SQA",
        "name":"Starbucks",
        "review_count":42,
        "rating":3.0,
        "price":"$$",
        "price_point":2,
        "display_phone":"(212) 366-4672",
        "address1":"14 W 23rd St",
        "address2":"",
        "address3":"",
        "city":"New York",
        "state":"NY",
        "zip":"10010",
        "country":"US",
        "latitude":40.74165139,
        "longitude":-73.990294
    },
    {
        "id":"ueW1VAYAN95SfmxDwt4K3w",
        "name":"Starbucks",
        "review_count":63,
        "rating":2.5,
        "price":"$$",
        "price_point":2,
        "display_phone":"(212) 475-9025",
        "address1":"750 6th Ave",
        "address2":"",
        "address3":"",
        "city":"New York",
        "state":"NY",
        "zip":"10010",
        "country":"US",
        "latitude":40.74183337,
        "longitude":-73.99326431
    },
    {
        "id":"-2kUyfQrEBxYXfNKfDwAJQ",
        "name":"Starbucks",
        "review_count":109,
        "rating":3.0,
        "price":"$$",
        "price_point":2,
        "display_phone":"(718) 369-3098",
        "address1":"66 Nassau Ave",
        "address2":"",
        "address3":"",
        "city":"Brooklyn",
        "state":"NY",
        "zip":"11222",
        "country":"US",
        "latitude":40.723415,
        "longitude":-73.95143391
    },
    {
        "id":"doYomiwqLdNoP18iDrnLFg",
        "name":"Starbucks",
        "review_count":23,
        "rating":4.0,
        "price":"",
        "price_point":0,
        "display_phone":"(646) 634-9309",
        "address1":"393 3rd Ave",
        "address2":"",
        "address3":"",
        "city":"New York",
        "state":"NY",
        "zip":"10016",
        "country":"US",
        "latitude":40.741764,
        "longitude":-73.980784
    },
    {
        "id":"YedZkKHs52mU1UrcMPP_Sg",
        "name":"Starbucks",
        "review_count":66,
        "rating":2.5,
        "price":"$$",
        "price_point":2,
        "display_phone":"(212) 254-2794",
        "address1":"177 Eighth Ave",
        "address2":"",
        "address3":"",
        "city":"New York",
        "state":"NY",
        "zip":"10011",
        "country":"US",
        "latitude":40.7430196646,
        "longitude":-74.0003835106
    },
    {
        "id":"as27Zd4Rtv8yXPekqxrgIA",
        "name":"Starbucks",
        "review_count":34,
        "rating":3.0,
        "price":"$$",
        "price_point":2,
        "display_phone":"(929) 214-9558",
        "address1":"124 8th Ave",
        "address2":"",
        "address3":"",
        "city":"New York",
        "state":"NY",
        "zip":"10011",
        "country":"US",
        "latitude":40.7430846147,
        "longitude":-74.0003975612
    },
    {
        "id":"gjWupETW3QAzdCNaE9q_mQ",
        "name":"Starbucks",
        "review_count":85,
        "rating":3.5,
        "price":"$$",
        "price_point":2,
        "display_phone":"(212) 367-2050",
        "address1":"1140 Broadway",
        "address2":"",
        "address3":"",
        "city":"New York",
        "state":"NY",
        "zip":"10010",
        "country":"US",
        "latitude":40.7439141,
        "longitude":-73.9887462
    },
    {
        "id":"z6VEgG6Ow0wdvHzaZou8EA",
        "name":"Starbucks",
        "review_count":19,
        "rating":3.5,
        "price":"",
        "price_point":0,
        "display_phone":"(718) 383-3750",
        "address1":"424 Park Ave S",
        "address2":"",
        "address3":"",
        "city":"New York",
        "state":"NY",
        "zip":"10016",
        "country":"US",
        "latitude":40.744169,
        "longitude":-73.983712
    },
    {
        "id":"uu1HQwjmDr_SmB-05J2EfQ",
        "name":"Starbucks",
        "review_count":82,
        "rating":3.5,
        "price":"$$",
        "price_point":2,
        "display_phone":"(212) 481-4690",
        "address1":"776 Avenue Of The Americas",
        "address2":"The Capitol At Chelsea",
        "address3":"",
        "city":"New York",
        "state":"NY",
        "zip":"10001",
        "country":"US",
        "latitude":40.74506872,
        "longitude":-73.99095278
    },
    {
        "id":"Xh9s9vtU14P0n3xfGjSVfQ",
        "name":"Starbucks",
        "review_count":41,
        "rating":3.0,
        "price":"$",
        "price_point":1,
        "display_phone":"(212) 414-8786",
        "address1":"444 9th St",
        "address2":"",
        "address3":"",
        "city":"Brooklyn",
        "state":"NY",
        "zip":"11215",
        "country":"US",
        "latitude":40.66682928,
        "longitude":-73.98187487
    },
    {
        "id":"i6VGmpA_5BF20eb_tdu_qA",
        "name":"Starbucks",
        "review_count":64,
        "rating":2.5,
        "price":"$$",
        "price_point":2,
        "display_phone":"(212) 462-2020",
        "address1":"261 5th Ave",
        "address2":"",
        "address3":"",
        "city":"New York",
        "state":"NY",
        "zip":"10016",
        "country":"US",
        "latitude":40.745007,
        "longitude":-73.98681
    },
    {
        "id":"fXOXQQWIbfd01j4YGlUVyg",
        "name":"Starbucks",
        "review_count":124,
        "rating":3.0,
        "price":"$$",
        "price_point":2,
        "display_phone":"(201) 332-2385",
        "address1":"585 2nd Ave",
        "address2":"",
        "address3":"",
        "city":"New York",
        "state":"NY",
        "zip":"10016",
        "country":"US",
        "latitude":40.743799,
        "longitude":-73.976832
    },
    {
        "id":"7N9-NBlUEVll97PrSFYv-Q",
        "name":"Starbucks",
        "review_count":64,
        "rating":3.0,
        "price":"$$",
        "price_point":2,
        "display_phone":"(212) 213-6519",
        "address1":"774 Broadway",
        "address2":"",
        "address3":"",
        "city":"Brooklyn",
        "state":"NY",
        "zip":"11206",
        "country":"US",
        "latitude":40.7000364,
        "longitude":-73.941105
    },
    {
        "id":"bvOlb-9UI6PakoiJpstX_g",
        "name":"Starbucks",
        "review_count":71,
        "rating":2.0,
        "price":"$$",
        "price_point":2,
        "display_phone":"(201) 792-3109",
        "address1":"475 Park Ave S",
        "address2":"",
        "address3":"",
        "city":"New York",
        "state":"NY",
        "zip":"10016",
        "country":"US",
        "latitude":40.74548541,
        "longitude":-73.9821856
    },
    {
        "id":"7XU6Ie4gTzp_nmvXtX6xfw",
        "name":"Starbucks",
        "review_count":88,
        "rating":3.5,
        "price":"$$",
        "price_point":2,
        "display_phone":"(718) 609-0467",
        "address1":"591 1st Ave",
        "address2":"",
        "address3":"",
        "city":"New York",
        "state":"NY",
        "zip":"10016",
        "country":"US",
        "latitude":40.74369257,
        "longitude":-73.97390831
    },
    {
        "id":"zwvFJHtRw5L0a_OVn7cd0Q",
        "name":"Starbucks",
        "review_count":46,
        "rating":2.5,
        "price":"$$",
        "price_point":2,
        "display_phone":"(929) 214-8871",
        "address1":"315 Seventh Ave",
        "address2":"",
        "address3":"",
        "city":"New York",
        "state":"NY",
        "zip":"10001",
        "country":"US",
        "latitude":40.7469616,
        "longitude":-73.993224
    },
    {
        "id":"gPKHZpX6sfTslBQfDgvCVg",
        "name":"Starbucks",
        "review_count":43,
        "rating":3.0,
        "price":"$$",
        "price_point":2,
        "display_phone":"(212) 779-1557",
        "address1":"3 Park Ave",
        "address2":"",
        "address3":"",
        "city":"New York",
        "state":"NY",
        "zip":"10016",
        "country":"US",
        "latitude":40.74676262,
        "longitude":-73.98111412
    },
    {
        "id":"D71sZqtfYHHU4-4wygHyHQ",
        "name":"Starbucks",
        "review_count":60,
        "rating":2.0,
        "price":"$$",
        "price_point":2,
        "display_phone":"(646) 638-1571",
        "address1":"875 6th Ave",
        "address2":"",
        "address3":"",
        "city":"New York",
        "state":"NY",
        "zip":"10001",
        "country":"US",
        "latitude":40.74814382,
        "longitude":-73.98927682
    },
    {
        "id":"8iWto1WAB0eO91Kp-CYu1g",
        "name":"Starbucks",
        "review_count":92,
        "rating":3.0,
        "price":"$",
        "price_point":1,
        "display_phone":"(212) 684-1299",
        "address1":"350 5th Ave",
        "address2":"",
        "address3":"",
        "city":"New York",
        "state":"NY",
        "zip":"10001",
        "country":"US",
        "latitude":40.7482589959,
        "longitude":-73.9851133451
    },
    {
        "id":"rPu3L6Jgm5w2FekzOBgW9w",
        "name":"Starbucks",
        "review_count":40,
        "rating":3.0,
        "price":"$$",
        "price_point":2,
        "display_phone":"(917) 246-0280",
        "address1":"350 5th Ave",
        "address2":"Empire State Building",
        "address3":"",
        "city":"New York",
        "state":"NY",
        "zip":"10118",
        "country":"US",
        "latitude":40.748245,
        "longitude":-73.98511
    },
    {
        "id":"Eld8sS7sP_4ka2aWGqvCGQ",
        "name":"Starbucks",
        "review_count":20,
        "rating":3.0,
        "price":"$$",
        "price_point":2,
        "display_phone":"(347) 514-4698",
        "address1":"370 7th Ave",
        "address2":"",
        "address3":"",
        "city":"New York",
        "state":"NY",
        "zip":"10001",
        "country":"US",
        "latitude":40.7489882558,
        "longitude":-73.99236373
    },
    {
        "id":"WqwADyaspxbly_-bVMmO3A",
        "name":"Starbucks",
        "review_count":23,
        "rating":3.0,
        "price":"",
        "price_point":0,
        "display_phone":"(347) 852-0545",
        "address1":"11 Pennsylvania Plz",
        "address2":"Starbucks, Pennsylvania Station",
        "address3":"",
        "city":"New York",
        "state":"NY",
        "zip":"10001",
        "country":"US",
        "latitude":40.749295,
        "longitude":-73.991467
    },
    {
        "id":"MwdfVMiP_zkX5BE3TaMCWg",
        "name":"Starbucks",
        "review_count":69,
        "rating":3.0,
        "price":"$$",
        "price_point":2,
        "display_phone":"(201) 876-0300",
        "address1":"Pennsylvania Station",
        "address2":"",
        "address3":"Amtrak Main Course",
        "city":"New York",
        "state":"NY",
        "zip":"10001",
        "country":"US",
        "latitude":40.7492206,
        "longitude":-73.9906831
    },
    {
        "id":"IEQsoguinwHzYYBGrmUYXA",
        "name":"Starbucks",
        "review_count":18,
        "rating":2.0,
        "price":"$$",
        "price_point":2,
        "display_phone":"(201) 499-0017",
        "address1":"341 Eastern Pkwy",
        "address2":"",
        "address3":"",
        "city":"Brooklyn",
        "state":"NY",
        "zip":"11238",
        "country":"US",
        "latitude":40.6710895,
        "longitude":-73.957572
    },
    {
        "id":"ubBfbdci4Bs2mtOngfWkyA",
        "name":"Starbucks",
        "review_count":80,
        "rating":2.0,
        "price":"$$",
        "price_point":2,
        "display_phone":"(646) 336-6462",
        "address1":"200 Madison Ave",
        "address2":"",
        "address3":"",
        "city":"New York",
        "state":"NY",
        "zip":"10016",
        "country":"US",
        "latitude":40.749023,
        "longitude":-73.98242507
    },
    {
        "id":"EgXr4Kbs8iO3Ai5BqkXa3w",
        "name":"Starbucks",
        "review_count":75,
        "rating":2.5,
        "price":"$$",
        "price_point":2,
        "display_phone":"(212) 629-6540",
        "address1":"373 5th Ave",
        "address2":"",
        "address3":"",
        "city":"New York",
        "state":"NY",
        "zip":"10016",
        "country":"US",
        "latitude":40.74914283,
        "longitude":-73.98374891
    },
    {
        "id":"pt5CjPgu2kkuQTsnv5QnjQ",
        "name":"Starbucks",
        "review_count":23,
        "rating":3.0,
        "price":"$$",
        "price_point":2,
        "display_phone":"(212) 564-9141",
        "address1":"151 W 34th St",
        "address2":"Macy's Herald Square",
        "address3":"",
        "city":"New York",
        "state":"NY",
        "zip":"10001",
        "country":"US",
        "latitude":40.750843,
        "longitude":-73.98943
    },
    {
        "id":"ptxooaAssq6m15RTV7kPdg",
        "name":"Starbucks",
        "review_count":110,
        "rating":2.5,
        "price":"$$",
        "price_point":2,
        "display_phone":"(646) 799-6365",
        "address1":"242 W 34th St",
        "address2":"",
        "address3":"",
        "city":"New York",
        "state":"NY",
        "zip":"10119",
        "country":"US",
        "latitude":40.75096633,
        "longitude":-73.99135485
    },
    {
        "id":"jj9BgHf4P5EniTDSfvyclQ",
        "name":"Starbucks",
        "review_count":78,
        "rating":3.0,
        "price":"$$",
        "price_point":2,
        "display_phone":"(212) 967-2041",
        "address1":"1 Penn Plaza Concourse Level",
        "address2":"",
        "address3":"",
        "city":"New York",
        "state":"NY",
        "zip":"10119",
        "country":"US",
        "latitude":40.751484,
        "longitude":-73.992591
    },
    {
        "id":"awAViLtjfsAhP4xXR05iTA",
        "name":"Starbucks",
        "review_count":43,
        "rating":3.5,
        "price":"$$",
        "price_point":2,
        "display_phone":"(646) 477-8909",
        "address1":"977 Avenue Of The Americas",
        "address2":"",
        "address3":"",
        "city":"New York",
        "state":"NY",
        "zip":"10018",
        "country":"US",
        "latitude":40.75108409,
        "longitude":-73.98721893
    },
    {
        "id":"gMkHpBM00f_qxZ8TKYcVqQ",
        "name":"Starbucks",
        "review_count":28,
        "rating":3.0,
        "price":"",
        "price_point":0,
        "display_phone":"(646) 477-8909",
        "address1":"605 3rd Ave",
        "address2":"",
        "address3":"",
        "city":"New York",
        "state":"NY",
        "zip":"10016",
        "country":"US",
        "latitude":40.7492924273,
        "longitude":-73.9751705164
    },
    {
        "id":"IFVwNfmkOJ0CSgILGpH29Q",
        "name":"Starbucks",
        "review_count":71,
        "rating":3.0,
        "price":"$$",
        "price_point":2,
        "display_phone":"(718) 778-0140",
        "address1":"383 W 31st St",
        "address2":"",
        "address3":"Moynihan Train Hall",
        "city":"New York",
        "state":"NY",
        "zip":"10001",
        "country":"US",
        "latitude":40.75162049,
        "longitude":-73.996548
    },
    {
        "id":"BeXF0aM0zkJnfLe9rZV0LQ",
        "name":"Starbucks",
        "review_count":56,
        "rating":3.0,
        "price":"$$",
        "price_point":2,
        "display_phone":"(212) 684-6873",
        "address1":"90 Park Ave",
        "address2":"",
        "address3":"",
        "city":"New York",
        "state":"NY",
        "zip":"10016",
        "country":"US",
        "latitude":40.7507673,
        "longitude":-73.9793811
    },
    {
        "id":"zkpRCCgdlTiMS0i10t5x6w",
        "name":"Starbucks",
        "review_count":89,
        "rating":2.5,
        "price":"$$",
        "price_point":2,
        "display_phone":"(201) 222-2491",
        "address1":"462 7th Ave",
        "address2":"",
        "address3":"",
        "city":"New York",
        "state":"NY",
        "zip":"10018",
        "country":"US",
        "latitude":40.75210472,
        "longitude":-73.99030642
    },
    {
        "id":"9geyoUfHITKKeoWETxKqVg",
        "name":"Starbucks",
        "review_count":78,
        "rating":2.5,
        "price":"$",
        "price_point":1,
        "display_phone":"(212) 213-5363",
        "address1":"360 Lexington Ave",
        "address2":"",
        "address3":"",
        "city":"New York",
        "state":"NY",
        "zip":"10017",
        "country":"US",
        "latitude":40.75053006,
        "longitude":-73.9770422
    },
    {
        "id":"PmevQ6Ocov-SuDGuNIyBEw",
        "name":"Starbucks",
        "review_count":8,
        "rating":4.5,
        "price":"",
        "price_point":0,
        "display_phone":"(212) 239-6524",
        "address1":"435 W 31st St",
        "address2":"",
        "address3":"",
        "city":"New York",
        "state":"NY",
        "zip":"10001",
        "country":"US",
        "latitude":40.7521752542,
        "longitude":-73.9989266408
    },
    {
        "id":"imsqPlJkRcmJFLfmAZeZKw",
        "name":"Starbucks",
        "review_count":1,
        "rating":5.0,
        "price":"",
        "price_point":0,
        "display_phone":"(646) 819-3772",
        "address1":"494 8th Ave",
        "address2":"",
        "address3":"",
        "city":"New York",
        "state":"NY",
        "zip":"10001",
        "country":"US",
        "latitude":40.75265632,
        "longitude":-73.99282433
    },
    {
        "id":"d6ZOWShp50qQHqkTHjzSFg",
        "name":"Starbucks",
        "review_count":5,
        "rating":4.0,
        "price":"",
        "price_point":0,
        "display_phone":"(212) 736-3206",
        "address1":"600 8th Ave",
        "address2":"Port Authority Bus Terminal",
        "address3":"Port Authority South Wing",
        "city":"New York",
        "state":"NY",
        "zip":"10018",
        "country":"US",
        "latitude":40.7525974,
        "longitude":-73.9928136
    },
    {
        "id":"n1327JgL7TgBT7jDKMjA7A",
        "name":"Starbucks",
        "review_count":60,
        "rating":2.0,
        "price":"$$",
        "price_point":2,
        "display_phone":"(212) 695-2915",
        "address1":"330 W 34th St",
        "address2":"",
        "address3":"",
        "city":"New York",
        "state":"NY",
        "zip":"10001",
        "country":"US",
        "latitude":40.7525816,
        "longitude":-73.9951022
    },
    {
        "id":"bv81rNYg3NS1drk96I4raA",
        "name":"Starbucks",
        "review_count":30,
        "rating":3.5,
        "price":"$$",
        "price_point":2,
        "display_phone":"(917) 574-4123",
        "address1":"150 E 42nd St",
        "address2":"",
        "address3":"",
        "city":"New York",
        "state":"NY",
        "zip":"10017",
        "country":"US",
        "latitude":40.750938,
        "longitude":-73.975288
    },
    {
        "id":"G4gL2_ASWbR0JVPW6IifuA",
        "name":"Starbucks",
        "review_count":21,
        "rating":3.0,
        "price":"",
        "price_point":0,
        "display_phone":"(646) 385-3293",
        "address1":"125 Park Ave",
        "address2":"",
        "address3":"",
        "city":"New York",
        "state":"NY",
        "zip":"10017",
        "country":"US",
        "latitude":40.751774,
        "longitude":-73.97765
    },
    {
        "id":"MPV-rSjFjfxJDjOV97NwUw",
        "name":"Starbucks",
        "review_count":40,
        "rating":3.0,
        "price":"$$",
        "price_point":2,
        "display_phone":"(212) 661-5489",
        "address1":"1040 6th Ave",
        "address2":"",
        "address3":"",
        "city":"New York",
        "state":"NY",
        "zip":"10018",
        "country":"US",
        "latitude":40.753126,
        "longitude":-73.985083
    },
    {
        "id":"l7xJlfmn8N4DD1oxfR_rIA",
        "name":"Starbucks",
        "review_count":85,
        "rating":2.0,
        "price":"$$",
        "price_point":2,
        "display_phone":"(212) 279-6432",
        "address1":"450 W 33rd St",
        "address2":"",
        "address3":"",
        "city":"New York",
        "state":"NY",
        "zip":"10001",
        "country":"US",
        "latitude":40.7535908,
        "longitude":-73.9994256411
    },
    {
        "id":"1zZt1pkpkst4NDqqneqvWg",
        "name":"Starbucks",
        "review_count":69,
        "rating":2.5,
        "price":"$$",
        "price_point":2,
        "display_phone":"(212) 953-1662",
        "address1":"485 Fifth Ave",
        "address2":"",
        "address3":"",
        "city":"New York",
        "state":"NY",
        "zip":"10017",
        "country":"US",
        "latitude":40.75295486,
        "longitude":-73.98106181
    },
    {
        "id":"wN8ZuLAksABH2FzTOdneRQ",
        "name":"Starbucks",
        "review_count":5,
        "rating":4.0,
        "price":"",
        "price_point":0,
        "display_phone":"(929) 924-5047",
        "address1":"685 3rd Ave",
        "address2":"",
        "address3":"",
        "city":"New York",
        "state":"NY",
        "zip":"10017",
        "country":"US",
        "latitude":40.7518280944,
        "longitude":-73.9734176585
    },
    {
        "id":"0IOMQtfS3T9O8HZGBLqcIQ",
        "name":"Starbucks",
        "review_count":145,
        "rating":2.5,
        "price":"$$",
        "price_point":2,
        "display_phone":"(212) 947-3860",
        "address1":"425 Lexington Ave",
        "address2":"",
        "address3":"",
        "city":"New York",
        "state":"NY",
        "zip":"10166",
        "country":"US",
        "latitude":40.75243382,
        "longitude":-73.97493509
    },
    {
        "id":"wEQ7AqEk50IIftenTBduDg",
        "name":"Starbucks",
        "review_count":65,
        "rating":2.0,
        "price":"$$",
        "price_point":2,
        "display_phone":"(212) 273-9613",
        "address1":"1411 Broadway",
        "address2":"",
        "address3":"",
        "city":"New York",
        "state":"NY",
        "zip":"10018",
        "country":"US",
        "latitude":40.754361,
        "longitude":-73.987257
    },
    {
        "id":"tgRdyqhFsfmAxVHLEbp0Hg",
        "name":"Starbucks",
        "review_count":7,
        "rating":3.0,
        "price":"",
        "price_point":0,
        "display_phone":"(917) 576-1959",
        "address1":"34 Hudson Yards",
        "address2":"Ste B",
        "address3":"",
        "city":"New York",
        "state":"NY",
        "zip":"10001",
        "country":"US",
        "latitude":40.7547845908,
        "longitude":-74.0019329
    },
    {
        "id":"fga6-O2R_ckKi1XegFWm-Q",
        "name":"Starbucks",
        "review_count":64,
        "rating":2.5,
        "price":"$$",
        "price_point":2,
        "display_phone":"(212) 949-4122",
        "address1":"7800 Grand Central Station",
        "address2":"Grand Central Station",
        "address3":"",
        "city":"New York",
        "state":"NY",
        "zip":"10017",
        "country":"US",
        "latitude":40.7537345886,
        "longitude":-73.9737014771
    },
    {
        "id":"Pd6TPlx3VTWRlpAc843qrg",
        "name":"Starbucks",
        "review_count":31,
        "rating":3.0,
        "price":"$$",
        "price_point":2,
        "display_phone":"(212) 557-2718",
        "address1":"340 Madison Ave",
        "address2":"",
        "address3":"",
        "city":"New York",
        "state":"NY",
        "zip":"10173",
        "country":"US",
        "latitude":40.753901,
        "longitude":-73.978693
    },
    {
        "id":"7zxK1_vdhzjIbORD3DsRKA",
        "name":"Starbucks",
        "review_count":36,
        "rating":2.5,
        "price":"$",
        "price_point":1,
        "display_phone":"(212) 302-2132",
        "address1":"241 37th St",
        "address2":"Ste 1-1-B15",
        "address3":"",
        "city":"Brooklyn",
        "state":"NY",
        "zip":"11232",
        "country":"US",
        "latitude":40.65586298,
        "longitude":-74.00817192
    },
    {
        "id":"uiLtRl-WUXZe9Zzkt01ffA",
        "name":"Starbucks",
        "review_count":25,
        "rating":2.5,
        "price":"$",
        "price_point":1,
        "display_phone":"(646) 648-3696",
        "address1":"1101 - 1109 Avenue Of The Americas",
        "address2":"",
        "address3":"",
        "city":"New York",
        "state":"NY",
        "zip":"10036",
        "country":"US",
        "latitude":40.75571191,
        "longitude":-73.98430011
    },
    {
        "id":"VOki3NPJF1oFN6B6UBGOmA",
        "name":"Starbucks",
        "review_count":74,
        "rating":2.5,
        "price":"$$",
        "price_point":2,
        "display_phone":"(212) 869-5273",
        "address1":"620 Eighth Ave",
        "address2":"",
        "address3":"",
        "city":"New York",
        "state":"NY",
        "zip":"10018",
        "country":"US",
        "latitude":40.7561111436,
        "longitude":-73.9901957048
    },
    {
        "id":"f0pBjr-JqvQ01RtjE13xdg",
        "name":"Starbucks",
        "review_count":7,
        "rating":3.0,
        "price":"",
        "price_point":0,
        "display_phone":"(646) 585-6210",
        "address1":"2 W 45th St",
        "address2":"",
        "address3":"",
        "city":"New York",
        "state":"NY",
        "zip":"10036",
        "country":"US",
        "latitude":40.7555695,
        "longitude":-73.980208
    },
    {
        "id":"_9nTH50K42Yme41Ue1SKRQ",
        "name":"Starbucks",
        "review_count":48,
        "rating":3.0,
        "price":"$",
        "price_point":1,
        "display_phone":"(646) 865-1250",
        "address1":"1500 Broadway",
        "address2":"",
        "address3":"",
        "city":"New York",
        "state":"NY",
        "zip":"10036",
        "country":"US",
        "latitude":40.756694,
        "longitude":-73.985893
    },
    {
        "id":"oKT6WYRcv0COwu--8hfIOw",
        "name":"Starbucks",
        "review_count":44,
        "rating":2.5,
        "price":"$",
        "price_point":1,
        "display_phone":"(212) 922-3589",
        "address1":"757 3rd Ave",
        "address2":"",
        "address3":"",
        "city":"New York",
        "state":"NY",
        "zip":"10017",
        "country":"US",
        "latitude":40.75417,
        "longitude":-73.97173805
    },
    {
        "id":"ACFddvldZo7aWUSk5CFbGw",
        "name":"Starbucks",
        "review_count":78,
        "rating":2.0,
        "price":"$$",
        "price_point":2,
        "display_phone":"(917) 675-2766",
        "address1":"655 W 34th St",
        "address2":"",
        "address3":"Javits Convention Ctr Taxi North",
        "city":"New York",
        "state":"NY",
        "zip":"10001",
        "country":"US",
        "latitude":40.75695736,
        "longitude":-74.00347251
    },
    {
        "id":"BXkOp7IXVNDC98SxyM002Q",
        "name":"Starbucks",
        "review_count":17,
        "rating":4.0,
        "price":"",
        "price_point":0,
        "display_phone":"(917) 764-2042",
        "address1":"511 Lexington Ave",
        "address2":"",
        "address3":"",
        "city":"New York",
        "state":"NY",
        "zip":"10017",
        "country":"US",
        "latitude":40.75500416,
        "longitude":-73.97321673
    },
    {
        "id":"__OxnxuxnxJi8-xgYEwFhw",
        "name":"Starbucks",
        "review_count":73,
        "rating":2.5,
        "price":"$$",
        "price_point":2,
        "display_phone":"(212) 370-4161",
        "address1":"485 5th Ave",
        "address2":"",
        "address3":"",
        "city":"New York",
        "state":"NY",
        "zip":"10017",
        "country":"US",
        "latitude":40.756425,
        "longitude":-73.978301
    },
    {
        "id":"2bfClDnQuYsGhtU46jd_QQ",
        "name":"Starbucks",
        "review_count":11,
        "rating":3.5,
        "price":"$",
        "price_point":1,
        "display_phone":"(212) 867-0928",
        "address1":"55 W 46th St",
        "address2":"",
        "address3":"",
        "city":"New York",
        "state":"NY",
        "zip":"10036",
        "country":"US",
        "latitude":40.75708906,
        "longitude":-73.98114
    },
    {
        "id":"9sy5bAFcKLNIohhaI4ekPg",
        "name":"Starbucks",
        "review_count":16,
        "rating":4.0,
        "price":"",
        "price_point":0,
        "display_phone":"(718) 786-8881",
        "address1":"684 8th Ave",
        "address2":"",
        "address3":"",
        "city":"New York",
        "state":"NY",
        "zip":"10036",
        "country":"US",
        "latitude":40.758001,
        "longitude":-73.989036
    },
    {
        "id":"_VJEvBodSN3t-iB0nRB8bg",
        "name":"Starbucks",
        "review_count":9,
        "rating":2.5,
        "price":"",
        "price_point":0,
        "display_phone":"(929) 298-9559",
        "address1":"152 W 45th St",
        "address2":"",
        "address3":"",
        "city":"New York",
        "state":"NY",
        "zip":"10036",
        "country":"US",
        "latitude":40.75764781,
        "longitude":-73.9851028
    },
    {
        "id":"HBLIsEMgnNSxdMItaTSbEA",
        "name":"Starbucks",
        "review_count":6,
        "rating":3.0,
        "price":"",
        "price_point":0,
        "display_phone":"(212) 382-3917",
        "address1":"655 W 34th St",
        "address2":"",
        "address3":"Starbucks Level 3 Jacob Javits Cemt",
        "city":"New York",
        "state":"NY",
        "zip":"10001",
        "country":"US",
        "latitude":40.757815,
        "longitude":-74.002465
    },
    {
        "id":"Xf_ml1NElTjBmIgLtOBgfA",
        "name":"Starbucks",
        "review_count":4,
        "rating":3.5,
        "price":"",
        "price_point":0,
        "display_phone":"(646) 868-0222",
        "address1":"280 Park Ave",
        "address2":"",
        "address3":"",
        "city":"New York",
        "state":"NY",
        "zip":"10017",
        "country":"US",
        "latitude":40.756642,
        "longitude":-73.975064
    },
    {
        "id":"mTdtcmYwuPUqQS0bRJlh7A",
        "name":"Starbucks",
        "review_count":49,
        "rating":2.5,
        "price":"$$",
        "price_point":2,
        "display_phone":"(212) 869-0619",
        "address1":"593 9th Ave",
        "address2":"",
        "address3":"",
        "city":"New York",
        "state":"NY",
        "zip":"10036",
        "country":"US",
        "latitude":40.758994,
        "longitude":-73.992474
    },
    {
        "id":"SYOQooRo_AsgMQoAZEIWWg",
        "name":"Starbucks",
        "review_count":66,
        "rating":2.5,
        "price":"$$",
        "price_point":2,
        "display_phone":"(201) 792-5400",
        "address1":"28 W 48th St",
        "address2":"",
        "address3":"",
        "city":"New York",
        "state":"NY",
        "zip":"10036",
        "country":"US",
        "latitude":40.757794,
        "longitude":-73.979604
    },
    {
        "id":"8NHISsd0gKhyPNJoqhEqnA",
        "name":"Starbucks",
        "review_count":130,
        "rating":2.5,
        "price":"$",
        "price_point":1,
        "display_phone":"(212) 221-7515",
        "address1":"1535 Broadway",
        "address2":"",
        "address3":"Marriott Marquis - Street Level",
        "city":"New York",
        "state":"NY",
        "zip":"10036",
        "country":"US",
        "latitude":40.75863902,
        "longitude":-73.98618498
    },
    {
        "id":"aH37086js9K_v-fExGc0OA",
        "name":"Starbucks",
        "review_count":40,
        "rating":3.0,
        "price":"$$",
        "price_point":2,
        "display_phone":"(212) 715-9884",
        "address1":"560 Lexington Ave",
        "address2":"",
        "address3":"",
        "city":"New York",
        "state":"NY",
        "zip":"10022",
        "country":"US",
        "latitude":40.75685622,
        "longitude":-73.97247494
    },
    {
        "id":"OwtKf-ePwLX0z46bQ6I60g",
        "name":"Starbucks",
        "review_count":5,
        "rating":1.5,
        "price":"",
        "price_point":0,
        "display_phone":"(212) 216-5109",
        "address1":"30 Rockefeller Plz",
        "address2":"",
        "address3":"",
        "city":"New York",
        "state":"NY",
        "zip":"10112",
        "country":"US",
        "latitude":40.7593805497,
        "longitude":-73.9799744779
    },
    {
        "id":"_kAKIwIXClxsBfb-Ln1juw",
        "name":"Starbucks",
        "review_count":29,
        "rating":3.0,
        "price":"$",
        "price_point":1,
        "display_phone":"(212) 486-1964",
        "address1":"45 E 51st St",
        "address2":"",
        "address3":"",
        "city":"New York",
        "state":"NY",
        "zip":"10022",
        "country":"US",
        "latitude":40.758321,
        "longitude":-73.974073
    },
    {
        "id":"lthdRLb9_QPCfDa3i2BpUw",
        "name":"Starbucks",
        "review_count":59,
        "rating":2.0,
        "price":"$$$",
        "price_point":3,
        "display_phone":"(212) 490-3189",
        "address1":"770 8th Ave",
        "address2":"",
        "address3":"",
        "city":"New York",
        "state":"NY",
        "zip":"10036",
        "country":"US",
        "latitude":40.760489,
        "longitude":-73.987177
    },
    {
        "id":"zfOaYbyx5RAa91Qw_ThsPQ",
        "name":"Starbucks",
        "review_count":11,
        "rating":2.5,
        "price":"$$",
        "price_point":2,
        "display_phone":"(646) 647-5558",
        "address1":"969 1st Ave",
        "address2":"",
        "address3":"",
        "city":"New York",
        "state":"NY",
        "zip":"10022",
        "country":"US",
        "latitude":40.756047,
        "longitude":-73.964801
    },
    {
        "id":"AvV-Za0B1yfE5-w0GtUAPw",
        "name":"Starbucks",
        "review_count":85,
        "rating":2.5,
        "price":"$$",
        "price_point":2,
        "display_phone":"(212) 398-9702",
        "address1":"875 3rd Ave",
        "address2":"",
        "address3":"",
        "city":"New York",
        "state":"NY",
        "zip":"10022",
        "country":"US",
        "latitude":40.75737108,
        "longitude":-73.96922656
    },
    {
        "id":"hoAgU6rvhBucpgPfhwTQ5Q",
        "name":"Starbucks",
        "review_count":21,
        "rating":3.0,
        "price":"",
        "price_point":0,
        "display_phone":"(929) 237-5917",
        "address1":"55 E 52nd St",
        "address2":"",
        "address3":"Park Avenue Plz",
        "city":"New York",
        "state":"NY",
        "zip":"10022",
        "country":"US",
        "latitude":40.75880689,
        "longitude":-73.97338566
    },
    {
        "id":"0HfEodVz4GmQ53P0oo8OLg",
        "name":"Starbucks",
        "review_count":27,
        "rating":1.5,
        "price":"$$",
        "price_point":2,
        "display_phone":"(212) 216-5109",
        "address1":"750 7th Ave",
        "address2":"",
        "address3":"",
        "city":"New York",
        "state":"NY",
        "zip":"10019",
        "country":"US",
        "latitude":40.76075125,
        "longitude":-73.98382023
    },
    {
        "id":"1uxhGw-g7gt26Jhx1f9g5w",
        "name":"Starbucks",
        "review_count":17,
        "rating":2.5,
        "price":"$$",
        "price_point":2,
        "display_phone":"(212) 682-2586",
        "address1":"572 11th Ave",
        "address2":"Ste A",
        "address3":"",
        "city":"New York",
        "state":"NY",
        "zip":"10036",
        "country":"US",
        "latitude":40.76147,
        "longitude":-73.997377
    },
    {
        "id":"OIAgV2PyvUNIEbXNoOesow",
        "name":"Starbucks",
        "review_count":47,
        "rating":2.5,
        "price":"$$",
        "price_point":2,
        "display_phone":"(212) 644-9462",
        "address1":"515 Madison Ave",
        "address2":"",
        "address3":"",
        "city":"New York",
        "state":"NY",
        "zip":"10022",
        "country":"US",
        "latitude":40.759586,
        "longitude":-73.9736
    },
    {
        "id":"HASU2eEA0s-jMrDLiiknPA",
        "name":"Starbucks",
        "review_count":95,
        "rating":2.5,
        "price":"$",
        "price_point":1,
        "display_phone":"(212) 594-7846",
        "address1":"1290 6th Ave",
        "address2":"",
        "address3":"",
        "city":"New York",
        "state":"NY",
        "zip":"10019",
        "country":"US",
        "latitude":40.7607947,
        "longitude":-73.97913009
    },
    {
        "id":"t8_nm5-yk8ArhZjT3nHxRA",
        "name":"Starbucks",
        "review_count":34,
        "rating":2.5,
        "price":"$$",
        "price_point":2,
        "display_phone":"(646) 860-8626",
        "address1":"325 W 49th St",
        "address2":"",
        "address3":"",
        "city":"New York",
        "state":"NY",
        "zip":"10019",
        "country":"US",
        "latitude":40.7622152,
        "longitude":-73.9875023
    },
    {
        "id":"UgjaEX9ssUmISd63QdLiyw",
        "name":"Starbucks",
        "review_count":31,
        "rating":2.0,
        "price":"$",
        "price_point":1,
        "display_phone":"(646) 517-6146",
        "address1":"655 Lexington Ave",
        "address2":"",
        "address3":"",
        "city":"New York",
        "state":"NY",
        "zip":"10022",
        "country":"US",
        "latitude":40.759481,
        "longitude":-73.970033
    },
    {
        "id":"3zns2CUA4SW4X5rXF8rD2g",
        "name":"Starbucks",
        "review_count":35,
        "rating":2.5,
        "price":"$$",
        "price_point":2,
        "display_phone":"(212) 751-2937",
        "address1":"1633 Broadway",
        "address2":"",
        "address3":"",
        "city":"New York",
        "state":"NY",
        "zip":"10019",
        "country":"US",
        "latitude":40.76209078,
        "longitude":-73.98444342
    },
    {
        "id":"DTRLsTwx0534Iv-0xfXijA",
        "name":"Starbucks",
        "review_count":32,
        "rating":2.5,
        "price":"$$",
        "price_point":2,
        "display_phone":"(212) 688-8490",
        "address1":"1290 6th Ave",
        "address2":"",
        "address3":"",
        "city":"New York",
        "state":"NY",
        "zip":"10019",
        "country":"US",
        "latitude":40.76190905,
        "longitude":-73.97964256
    },
    {
        "id":"FBlBOpaJirkKW0nVIwVB6Q",
        "name":"Starbucks",
        "review_count":73,
        "rating":3.0,
        "price":"$$",
        "price_point":2,
        "display_phone":"(212) 830-9001",
        "address1":"1657 Broadway",
        "address2":"",
        "address3":"",
        "city":"New York",
        "state":"NY",
        "zip":"10019",
        "country":"US",
        "latitude":40.762426,
        "longitude":-73.9836332
    },
    {
        "id":"adpldzX9R1GEBwPht9PL8w",
        "name":"Starbucks",
        "review_count":30,
        "rating":3.0,
        "price":"$$",
        "price_point":2,
        "display_phone":"(347) 501-0264",
        "address1":"1065 2nd Ave",
        "address2":"",
        "address3":"",
        "city":"New York",
        "state":"NY",
        "zip":"10022",
        "country":"US",
        "latitude":40.7589491,
        "longitude":-73.9657952
    },
    {
        "id":"OpaBrd9NblsmguvSl-7NDg",
        "name":"Starbucks",
        "review_count":58,
        "rating":2.5,
        "price":"$$",
        "price_point":2,
        "display_phone":"(646) 477-4945",
        "address1":"871 8th Ave",
        "address2":"",
        "address3":"",
        "city":"New York",
        "state":"NY",
        "zip":"10019",
        "country":"US",
        "latitude":40.763714,
        "longitude":-73.985313
    },
    {
        "id":"G-P1VKUnbDC1TxVwwtS4Xw",
        "name":"Starbucks",
        "review_count":51,
        "rating":2.0,
        "price":"$$",
        "price_point":2,
        "display_phone":"(212) 974-0032",
        "address1":"1700 Broadway",
        "address2":"",
        "address3":"",
        "city":"New York",
        "state":"NY",
        "zip":"10019",
        "country":"US",
        "latitude":40.763735,
        "longitude":-73.982344
    },
    {
        "id":"nR5mZNG1QQ5dVUIqKN8Rkg",
        "name":"Starbucks",
        "review_count":18,
        "rating":2.5,
        "price":"",
        "price_point":0,
        "display_phone":"(212) 967-2227",
        "address1":"135 E 57th St",
        "address2":"",
        "address3":"",
        "city":"New York",
        "state":"NY",
        "zip":"10022",
        "country":"US",
        "latitude":40.761316,
        "longitude":-73.969035
    },
    {
        "id":"sswuN6W-p8wpIeQIoGuHmQ",
        "name":"Starbucks",
        "review_count":39,
        "rating":3.5,
        "price":"$$",
        "price_point":2,
        "display_phone":"(212) 371-3758",
        "address1":"731 Lexington Ave",
        "address2":"",
        "address3":"",
        "city":"New York",
        "state":"NY",
        "zip":"10022",
        "country":"US",
        "latitude":40.761399,
        "longitude":-73.96788
    },
    {
        "id":"4VwDtb5wOxfaXFOvTp7C6A",
        "name":"Starbucks",
        "review_count":29,
        "rating":2.5,
        "price":"$$",
        "price_point":2,
        "display_phone":"(212) 977-4861",
        "address1":"1290 6th Ave",
        "address2":"",
        "address3":"",
        "city":"New York",
        "state":"NY",
        "zip":"10019",
        "country":"US",
        "latitude":40.763632,
        "longitude":-73.977353
    },
    {
        "id":"Hb7SyfmB1BVYNITYxaoeBQ",
        "name":"Starbucks",
        "review_count":64,
        "rating":3.0,
        "price":"$",
        "price_point":1,
        "display_phone":"(212) 765-2205",
        "address1":"870 7th Ave",
        "address2":"",
        "address3":"",
        "city":"New York",
        "state":"NY",
        "zip":"10019",
        "country":"US",
        "latitude":40.7644185134,
        "longitude":-73.9810799346
    },
    {
        "id":"4hLo1-5ee0mOEND655zP9A",
        "name":"Starbucks",
        "review_count":34,
        "rating":3.0,
        "price":"$$",
        "price_point":2,
        "display_phone":"(212) 308-5717",
        "address1":"600 Madison Ave",
        "address2":"",
        "address3":"",
        "city":"New York",
        "state":"NY",
        "zip":"10022",
        "country":"US",
        "latitude":40.7631,
        "longitude":-73.97247
    },
    {
        "id":"aX_gVpvbGRc0jnp9MFP4pg",
        "name":"Starbucks",
        "review_count":1,
        "rating":4.0,
        "price":"",
        "price_point":0,
        "display_phone":"(212) 247-2527",
        "address1":"1102 1st Ave",
        "address2":"",
        "address3":"",
        "city":"New York",
        "state":"NY",
        "zip":"10065",
        "country":"US",
        "latitude":40.760397,
        "longitude":-73.961123
    },
    {
        "id":"tLonaIvNCHQI-9cDvo_dyQ",
        "name":"Starbucks",
        "review_count":41,
        "rating":3.5,
        "price":"$$",
        "price_point":2,
        "display_phone":"(347) 533-2101",
        "address1":"455 Main St",
        "address2":"",
        "address3":"",
        "city":"New York",
        "state":"NY",
        "zip":"10044",
        "country":"US",
        "latitude":40.759305,
        "longitude":-73.952917
    },
    {
        "id":"-UKGH0bcyLNMmTeFlx0qdA",
        "name":"Starbucks",
        "review_count":20,
        "rating":3.5,
        "price":"$$",
        "price_point":2,
        "display_phone":"(212) 974-0902",
        "address1":"240 Central Park S",
        "address2":"",
        "address3":"",
        "city":"New York",
        "state":"NY",
        "zip":"10019",
        "country":"US",
        "latitude":40.7670726,
        "longitude":-73.9810516
    },
    {
        "id":"0kjpsPQX5ynSXZ1aufBizw",
        "name":"Starbucks",
        "review_count":39,
        "rating":2.5,
        "price":"$",
        "price_point":1,
        "display_phone":"",
        "address1":"1000 S Eighth Ave",
        "address2":"Ste 34",
        "address3":"",
        "city":"New York",
        "state":"NY",
        "zip":"10019",
        "country":"US",
        "latitude":40.7673085652,
        "longitude":-73.9824502543
    },
    {
        "id":"zONp4aFgz6qo2bCsrkOIlw",
        "name":"Starbucks",
        "review_count":3,
        "rating":4.0,
        "price":"",
        "price_point":0,
        "display_phone":"(929) 558-1500",
        "address1":"4 Columbus Cir",
        "address2":"",
        "address3":"",
        "city":"New York",
        "state":"NY",
        "zip":"10019",
        "country":"US",
        "latitude":40.767544,
        "longitude":-73.983013
    },
    {
        "id":"BbExaFiP9j_65xtI3B2cAA",
        "name":"Dunkin' Donuts",
        "review_count":6,
        "rating":3.5,
        "price":"$",
        "price_point":1,
        "display_phone":"(212) 656-2145",
        "address1":"20 Broad St",
        "address2":"",
        "address3":"",
        "city":"New York",
        "state":"NY",
        "zip":"10005",
        "country":"US",
        "latitude":40.7037736763,
        "longitude":-74.0117785773
    },
    {
        "id":"bTVDxuyvlB-0wKdyIf7lKQ",
        "name":"Dunkin' Donuts",
        "review_count":29,
        "rating":1.5,
        "price":"$",
        "price_point":1,
        "display_phone":"(212) 443-3611",
        "address1":"110 E 14th St",
        "address2":"",
        "address3":"University Hall",
        "city":"New York",
        "state":"NY",
        "zip":"10003",
        "country":"US",
        "latitude":40.73393,
        "longitude":-73.98909
    },
    {
        "id":"NnbIwOQPi35w5Fmt3n4cng",
        "name":"Tim Hortons",
        "review_count":3,
        "rating":2.5,
        "price":"",
        "price_point":0,
        "display_phone":"(718) 743-9306",
        "address1":"2402 Knapp St",
        "address2":"",
        "address3":"",
        "city":"Brooklyn",
        "state":"NY",
        "zip":"11201",
        "country":"US",
        "latitude":40.5942829285,
        "longitude":-73.933402349
    },
    {
        "id":"p6Xo2vQlKv-w3X1r42CkVQ",
        "name":"Think Coffee",
        "review_count":721,
        "rating":3.5,
        "price":"$$",
        "price_point":2,
        "display_phone":"(212) 228-6226",
        "address1":"248 Mercer St",
        "address2":"",
        "address3":"",
        "city":"New York",
        "state":"NY",
        "zip":"10012",
        "country":"US",
        "latitude":40.728339,
        "longitude":-73.995287
    },
    {
        "id":"n5ZlKLaSrgwwj_ztHEfyow",
        "name":"Think Coffee",
        "review_count":51,
        "rating":3.5,
        "price":"$$",
        "price_point":2,
        "display_phone":"",
        "address1":"471 Broadway",
        "address2":"",
        "address3":"",
        "city":"New York",
        "state":"NY",
        "zip":"10013",
        "country":"US",
        "latitude":40.721248,
        "longitude":-74.000507
    },
    {
        "id":"4WTm6Dolt0FbTaFt8t-cvQ",
        "name":"Think Coffee",
        "review_count":439,
        "rating":3.0,
        "price":"$$",
        "price_point":2,
        "display_phone":"",
        "address1":"123 4th Ave",
        "address2":"",
        "address3":"",
        "city":"New York",
        "state":"NY",
        "zip":"10003",
        "country":"US",
        "latitude":40.7330253,
        "longitude":-73.9897646
    },
    {
        "id":"LTx8jkXzTTqZRMOIEQ0lmw",
        "name":"Think Coffee",
        "review_count":78,
        "rating":3.5,
        "price":"$$",
        "price_point":2,
        "display_phone":"",
        "address1":"350 Broadway",
        "address2":"",
        "address3":"",
        "city":"New York",
        "state":"NY",
        "zip":"10013",
        "country":"US",
        "latitude":40.7168907694,
        "longitude":-74.0037190532
    },
    {
        "id":"lXtwiYAzgTi2xhT1xg7gTQ",
        "name":"Think Coffee",
        "review_count":120,
        "rating":3.0,
        "price":"$$",
        "price_point":2,
        "display_phone":"(212) 228-6226",
        "address1":"73 8th Ave",
        "address2":"",
        "address3":"",
        "city":"New York",
        "state":"NY",
        "zip":"10014",
        "country":"US",
        "latitude":40.739551,
        "longitude":-74.003078
    },
    {
        "id":"HUHw-U0AxAXjBg1Zf9HXCA",
        "name":"Think Coffee",
        "review_count":254,
        "rating":3.5,
        "price":"$$",
        "price_point":2,
        "display_phone":"",
        "address1":"10 Devoe St",
        "address2":"",
        "address3":"",
        "city":"Brooklyn",
        "state":"NY",
        "zip":"11211",
        "country":"US",
        "latitude":40.7129334,
        "longitude":-73.950992
    },
    {
        "id":"3Lj7gVcMG6hy9lv-4bdIBg",
        "name":"Think Coffee",
        "review_count":46,
        "rating":3.5,
        "price":"$$",
        "price_point":2,
        "display_phone":"(212) 255-6452",
        "address1":"500 W 30th St",
        "address2":"",
        "address3":"",
        "city":"New York",
        "state":"NY",
        "zip":"10001",
        "country":"US",
        "latitude":40.7520507,
        "longitude":-74.0015759
    },
    {
        "id":"oCYg1xcD2IVbM3iRotvAHg",
        "name":"Think Coffee",
        "review_count":110,
        "rating":3.5,
        "price":"$$",
        "price_point":2,
        "display_phone":"",
        "address1":"246 5th Ave",
        "address2":"",
        "address3":"",
        "city":"New York",
        "state":"NY",
        "zip":"10001",
        "country":"US",
        "latitude":40.7447854004,
        "longitude":-73.987815431
    },
    {
        "id":"Gb5rdW8sJNzuSrUtExRzyw",
        "name":"Think Coffee",
        "review_count":4,
        "rating":4.0,
        "price":"",
        "price_point":0,
        "display_phone":"",
        "address1":"568 6th Ave",
        "address2":"",
        "address3":"",
        "city":"New York",
        "state":"NY",
        "zip":"10011",
        "country":"US",
        "latitude":40.7384356489,
        "longitude":-73.9958124431
    },
    {
        "id":"qbAiLieNfbKAYIvCYdPiaw",
        "name":"Think Coffee",
        "review_count":7,
        "rating":3.5,
        "price":"$$",
        "price_point":2,
        "display_phone":"(212) 255-2817",
        "address1":"208 W 13th St",
        "address2":"",
        "address3":"",
        "city":"New York",
        "state":"NY",
        "zip":"10011",
        "country":"US",
        "latitude":40.73813,
        "longitude":-74.00103
    },
    {
        "id":"qLcYigT-b4jnfT0c0BEqbQ",
        "name":"Think Coffee",
        "review_count":6,
        "rating":3.5,
        "price":"$$",
        "price_point":2,
        "display_phone":"",
        "address1":"43 W 32nd St",
        "address2":"",
        "address3":"",
        "city":"New York",
        "state":"NY",
        "zip":"10001",
        "country":"US",
        "latitude":40.748224,
        "longitude":-73.9874565
    },
    {
        "id":"oGTR0yY2rb4myVxLXRVkKg",
        "name":"Joe Coffee",
        "review_count":1,
        "rating":5.0,
        "price":"",
        "price_point":0,
        "display_phone":"",
        "address1":"485 Lexington Ave",
        "address2":"",
        "address3":"",
        "city":"New York",
        "state":"NY",
        "zip":"10017",
        "country":"US",
        "latitude":40.7540318567,
        "longitude":-73.9735017115
    },
    {
        "id":"UWJe1NV-dtzrDLzKneJFOQ",
        "name":"Gregorys Coffee",
        "review_count":183,
        "rating":4.0,
        "price":"$$",
        "price_point":2,
        "display_phone":"(877) 206-4592",
        "address1":"42 Broadway",
        "address2":"",
        "address3":"",
        "city":"New York",
        "state":"NY",
        "zip":"10004",
        "country":"US",
        "latitude":40.7059898376,
        "longitude":-74.0125961304
    },
    {
        "id":"Vl3ticJO_730wIi5L-gcRQ",
        "name":"Gregorys Coffee",
        "review_count":85,
        "rating":4.0,
        "price":"$",
        "price_point":1,
        "display_phone":"(877) 206-6306",
        "address1":"100 Wall St",
        "address2":"",
        "address3":"",
        "city":"New York",
        "state":"NY",
        "zip":"10005",
        "country":"US",
        "latitude":40.70525,
        "longitude":-74.00675
    },
    {
        "id":"neqjsm1AbaGcLDRNshEA7A",
        "name":"Gregorys Coffee",
        "review_count":85,
        "rating":4.0,
        "price":"$$",
        "price_point":2,
        "display_phone":"(877) 208-6362",
        "address1":"16 Court St",
        "address2":"",
        "address3":"",
        "city":"Brooklyn",
        "state":"NY",
        "zip":"11201",
        "country":"US",
        "latitude":40.693613,
        "longitude":-73.990789
    },
    {
        "id":"S1kVE60CFbA9xWjxqU3V_A",
        "name":"Gregorys Coffee",
        "review_count":396,
        "rating":4.0,
        "price":"$$",
        "price_point":2,
        "display_phone":"(877) 217-8371",
        "address1":"327 Park Ave S",
        "address2":"",
        "address3":"",
        "city":"New York",
        "state":"NY",
        "zip":"10010",
        "country":"US",
        "latitude":40.7409656,
        "longitude":-73.98557
    },
    {
        "id":"FwUsZei8r9hqM1zEq9bD7A",
        "name":"Gregorys Coffee",
        "review_count":65,
        "rating":3.5,
        "price":"$$",
        "price_point":2,
        "display_phone":"(877) 210-0105",
        "address1":"649 Broadway",
        "address2":"",
        "address3":"",
        "city":"New York",
        "state":"NY",
        "zip":"10012",
        "country":"US",
        "latitude":40.7268964,
        "longitude":-73.9958337
    },
    {
        "id":"JAHAi7ll1YtN4wKFMdGawg",
        "name":"Gregorys Coffee",
        "review_count":363,
        "rating":4.0,
        "price":"$$",
        "price_point":2,
        "display_phone":"(877) 231-7619",
        "address1":"874 6th Ave",
        "address2":"",
        "address3":"",
        "city":"New York",
        "state":"NY",
        "zip":"10001",
        "country":"US",
        "latitude":40.747743,
        "longitude":-73.989087
    },
    {
        "id":"YAT6W31Waw6C8cm0iSB7AA",
        "name":"Gregorys Coffee",
        "review_count":69,
        "rating":4.0,
        "price":"$$",
        "price_point":2,
        "display_phone":"(877) 206-6408",
        "address1":"80 Broad St",
        "address2":"",
        "address3":"",
        "city":"New York",
        "state":"NY",
        "zip":"10004",
        "country":"US",
        "latitude":40.7043392,
        "longitude":-74.0117909
    },
    {
        "id":"uo95mBuMeEkCqF12KnQiGw",
        "name":"Gregorys Coffee",
        "review_count":387,
        "rating":4.0,
        "price":"$$",
        "price_point":2,
        "display_phone":"(877) 220-3219",
        "address1":"58 W 44th St",
        "address2":"",
        "address3":"",
        "city":"New York",
        "state":"NY",
        "zip":"10036",
        "country":"US",
        "latitude":40.7558601,
        "longitude":-73.9828599
    },
    {
        "id":"G5JtJcFcYD93tS8RHw60_g",
        "name":"Gregorys Coffee",
        "review_count":267,
        "rating":4.0,
        "price":"$$",
        "price_point":2,
        "display_phone":"(877) 231-1094",
        "address1":"12 E 46th St",
        "address2":"",
        "address3":"",
        "city":"New York",
        "state":"NY",
        "zip":"10017",
        "country":"US",
        "latitude":40.75554,
        "longitude":-73.9781
    },
    {
        "id":"4RRaroFBdXjQTS_1_7FDsg",
        "name":"Gregorys Coffee",
        "review_count":161,
        "rating":4.0,
        "price":"$$",
        "price_point":2,
        "display_phone":"(877) 347-4673",
        "address1":"48 E 33rd St",
        "address2":"",
        "address3":"",
        "city":"New York",
        "state":"NY",
        "zip":"10016",
        "country":"US",
        "latitude":40.7464872,
        "longitude":-73.9825769
    },
    {
        "id":"02mNOAlJEyPG-3zgHBgWoQ",
        "name":"Gregorys Coffee",
        "review_count":175,
        "rating":3.5,
        "price":"$$",
        "price_point":2,
        "display_phone":"(877) 208-1928",
        "address1":"520 8th Ave",
        "address2":"",
        "address3":"",
        "city":"New York",
        "state":"NY",
        "zip":"10018",
        "country":"US",
        "latitude":40.7536129475,
        "longitude":-73.9920415021
    },
    {
        "id":"PZYziy4a5TrhxAnWFWZKyA",
        "name":"Gregorys Coffee",
        "review_count":96,
        "rating":4.0,
        "price":"$$",
        "price_point":2,
        "display_phone":"(877) 207-4774",
        "address1":"356 7th Ave",
        "address2":"",
        "address3":"",
        "city":"New York",
        "state":"NY",
        "zip":"10001",
        "country":"US",
        "latitude":40.74839,
        "longitude":-73.99288
    },
    {
        "id":"CTWQmyPG1wSYHJV-VlNZzg",
        "name":"Gregorys Coffee",
        "review_count":174,
        "rating":4.0,
        "price":"$",
        "price_point":1,
        "display_phone":"(212) 764-6805",
        "address1":"551 Fashion Ave",
        "address2":"",
        "address3":"",
        "city":"New York",
        "state":"NY",
        "zip":"10018",
        "country":"US",
        "latitude":40.754228074,
        "longitude":-73.9879328
    },
    {
        "id":"H3Ie1yEYfFNvfnMNVae-lQ",
        "name":"Gregorys Coffee",
        "review_count":124,
        "rating":4.0,
        "price":"$$",
        "price_point":2,
        "display_phone":"(877) 208-2491",
        "address1":"1273 1st Ave",
        "address2":"",
        "address3":"",
        "city":"New York",
        "state":"NY",
        "zip":"10065",
        "country":"US",
        "latitude":40.7656599,
        "longitude":-73.95779
    },
    {
        "id":"nGnQVWt5WDBVdQYy0ceMTQ",
        "name":"Gregorys Coffee",
        "review_count":105,
        "rating":4.0,
        "price":"$$",
        "price_point":2,
        "display_phone":"(877) 231-3189",
        "address1":"551 Madison Ave",
        "address2":"",
        "address3":"",
        "city":"New York",
        "state":"NY",
        "zip":"10022",
        "country":"US",
        "latitude":40.7610454,
        "longitude":-73.972956
    },
    {
        "id":"d7pZUO8BmiqII129kkRMKA",
        "name":"Gregorys Coffee",
        "review_count":70,
        "rating":3.5,
        "price":"$$",
        "price_point":2,
        "display_phone":"(877) 212-7153",
        "address1":"630 9th Ave",
        "address2":"",
        "address3":"",
        "city":"New York",
        "state":"NY",
        "zip":"10036",
        "country":"US",
        "latitude":40.76018,
        "longitude":-73.99113
    },
    {
        "id":"lgNYgPhG_LsBPUSy2qRgcA",
        "name":"Gregorys Coffee",
        "review_count":115,
        "rating":3.5,
        "price":"$",
        "price_point":1,
        "display_phone":"(877) 207-3358",
        "address1":"20 E 40th St",
        "address2":"",
        "address3":"",
        "city":"New York",
        "state":"NY",
        "zip":"10016",
        "country":"US",
        "latitude":40.75157,
        "longitude":-73.98059
    },
    {
        "id":"0YKbH8fuMJg_26A_F0R3vw",
        "name":"Gregorys Coffee",
        "review_count":117,
        "rating":3.5,
        "price":"$$",
        "price_point":2,
        "display_phone":"(877) 211-0964",
        "address1":"762 7th Ave",
        "address2":"",
        "address3":"",
        "city":"New York",
        "state":"NY",
        "zip":"10019",
        "country":"US",
        "latitude":40.7613048223,
        "longitude":-73.9834131292
    },
    {
        "id":"pyOqs8B6Cm3XK_l9qkTQZw",
        "name":"Gregorys Coffee",
        "review_count":40,
        "rating":4.0,
        "price":"$$",
        "price_point":2,
        "display_phone":"(877) 212-5813",
        "address1":"880 3rd Ave",
        "address2":"",
        "address3":"",
        "city":"New York",
        "state":"NY",
        "zip":"10022",
        "country":"US",
        "latitude":40.75799,
        "longitude":-73.96941
    },
    {
        "id":"oxa7ZhlDXm85TbbAVtcaQw",
        "name":"Gregorys Coffee",
        "review_count":72,
        "rating":4.0,
        "price":"$$",
        "price_point":2,
        "display_phone":"(877) 211-7343",
        "address1":"485 Madison Ave",
        "address2":"",
        "address3":"",
        "city":"New York",
        "state":"NY",
        "zip":"10022",
        "country":"US",
        "latitude":40.758785,
        "longitude":-73.974494
    },
    {
        "id":"GpLSRgv8goRUxlxYOVFU5g",
        "name":"Gregorys Coffee",
        "review_count":43,
        "rating":3.5,
        "price":"$$",
        "price_point":2,
        "display_phone":"(646) 895-9136",
        "address1":"1407 Broadway",
        "address2":"",
        "address3":"",
        "city":"New York",
        "state":"NY",
        "zip":"10018",
        "country":"US",
        "latitude":40.7535558149,
        "longitude":-73.98755
    },
    {
        "id":"8M-V3CdbywU1pXIhaROIoQ",
        "name":"Gregorys Coffee",
        "review_count":48,
        "rating":3.0,
        "price":"",
        "price_point":0,
        "display_phone":"(877) 216-1724",
        "address1":"122 E 42nd St",
        "address2":"",
        "address3":"",
        "city":"New York",
        "state":"NY",
        "zip":"10168",
        "country":"US",
        "latitude":40.75144,
        "longitude":-73.97646
    },
    {
        "id":"ejZjFbR_Z3He5pi699eJKg",
        "name":"Birch Coffee",
        "review_count":86,
        "rating":4.0,
        "price":"$$",
        "price_point":2,
        "display_phone":"(212) 686-1444",
        "address1":"8 Spruce St",
        "address2":"",
        "address3":"",
        "city":"New York",
        "state":"NY",
        "zip":"10038",
        "country":"US",
        "latitude":40.710971,
        "longitude":-74.005676
    },
    {
        "id":"cvETUmgjYfjcAgl54aWntA",
        "name":"Birch Coffee",
        "review_count":183,
        "rating":4.0,
        "price":"$",
        "price_point":1,
        "display_phone":"(212) 686-1444",
        "address1":"56 7th Ave",
        "address2":"",
        "address3":"",
        "city":"New York",
        "state":"NY",
        "zip":"10011",
        "country":"US",
        "latitude":40.7384749,
        "longitude":-73.9999265
    },
    {
        "id":"3erDg5x5OYgJjaPkV_ysLw",
        "name":"Birch Coffee",
        "review_count":118,
        "rating":4.0,
        "price":"$$",
        "price_point":2,
        "display_phone":"(212) 686-1444",
        "address1":"432 Third Ave",
        "address2":"",
        "address3":"",
        "city":"New York",
        "state":"NY",
        "zip":"10016",
        "country":"US",
        "latitude":40.7434044,
        "longitude":-73.9799957
    },
    {
        "id":"64yrGc7EDNd09ZmhUrizCw",
        "name":"Birch Coffee",
        "review_count":275,
        "rating":4.0,
        "price":"$$",
        "price_point":2,
        "display_phone":"(212) 686-1444",
        "address1":"134 1\/2 E 62nd St",
        "address2":"",
        "address3":"",
        "city":"New York",
        "state":"NY",
        "zip":"10065",
        "country":"US",
        "latitude":40.7638444066,
        "longitude":-73.9665842526
    },
    {
        "id":"mKqqDTOKr5oYZeAJkGTMUg",
        "name":"Birch Coffee",
        "review_count":79,
        "rating":4.5,
        "price":"",
        "price_point":0,
        "display_phone":"(212) 686-1444",
        "address1":"884 9th Ave",
        "address2":"",
        "address3":"",
        "city":"New York",
        "state":"NY",
        "zip":"10019",
        "country":"US",
        "latitude":40.76808,
        "longitude":-73.98537
    },
    {
        "id":"b_E6Ogi2nCO1Sz9NTLUlrQ",
        "name":"Birch Coffee",
        "review_count":354,
        "rating":4.0,
        "price":"$$",
        "price_point":2,
        "display_phone":"(212) 686-1444",
        "address1":"750 Columbus Ave",
        "address2":"",
        "address3":"",
        "city":"New York",
        "state":"NY",
        "zip":"10025",
        "country":"US",
        "latitude":40.7932744194,
        "longitude":-73.9674930984
    },
    {
        "id":"6wDprU59ogI6XpaymJA42A",
        "name":"Birch Coffee",
        "review_count":70,
        "rating":4.0,
        "price":"$",
        "price_point":1,
        "display_phone":"(212) 686-1444",
        "address1":"171 E 88th St",
        "address2":"",
        "address3":"",
        "city":"New York",
        "state":"NY",
        "zip":"10128",
        "country":"US",
        "latitude":40.78034,
        "longitude":-73.95328
    },
    {
        "id":"hbAX4ZH3eBDJ-DhRh1NwmA",
        "name":"Birch Coffee",
        "review_count":3,
        "rating":5.0,
        "price":"",
        "price_point":0,
        "display_phone":"(212) 686-1444",
        "address1":"136 Church St",
        "address2":"",
        "address3":"",
        "city":"New York",
        "state":"NY",
        "zip":"10007",
        "country":"US",
        "latitude":40.7142681527,
        "longitude":-74.0086752176
    },
    {
        "id":"RPCYR5urs3q0tz95xemh6A",
        "name":"Birch Coffee",
        "review_count":6,
        "rating":4.5,
        "price":"",
        "price_point":0,
        "display_phone":"",
        "address1":"986 6th Ave",
        "address2":"",
        "address3":"",
        "city":"New York",
        "state":"NY",
        "zip":"10018",
        "country":"US",
        "latitude":40.7512868,
        "longitude":-73.9864863
    },
    {
        "id":"PcZO462uvXdH6FGUWS0ZRw",
        "name":"Birch Coffee",
        "review_count":3,
        "rating":4.0,
        "price":"",
        "price_point":0,
        "display_phone":"",
        "address1":"423 8th Ave",
        "address2":"",
        "address3":"",
        "city":"New York",
        "state":"NY",
        "zip":"10001",
        "country":"US",
        "latitude":40.75047,
        "longitude":-73.99493
    },
    {
        "id":"Fftr_jhljpmBH4B2BsiJ0w",
        "name":"Birch Coffee",
        "review_count":7,
        "rating":4.0,
        "price":"",
        "price_point":0,
        "display_phone":"(212) 686-1444",
        "address1":"984 6th Ave",
        "address2":"",
        "address3":"",
        "city":"New York",
        "state":"NY",
        "zip":"10018",
        "country":"US",
        "latitude":40.7513327399,
        "longitude":-73.9863093
    }
]